{"state":0,"NearbyShopList":[{"Addr":"淮海中路138号无限度休闲广场2楼","Area":"卢湾区","City":"上海","Latitude":31.2309,"Longitude":121.484,"StoreId":"1891","StoreName":"美式眼镜上海玛士高无限度广场店","TelD2":"021-63756385","StoreRank":1},{"Addr":"南京东路719号","Area":"黄浦区","City":"上海","Latitude":31.2409,"Longitude":121.483,"StoreId":"1520","StoreName":"吴良材上海南新雅店","TelD2":"021-63603077","StoreRank":1},{"Addr":"南京东路762号","Area":"黄浦区","City":"上海","Latitude":31.2411,"Longitude":121.482,"StoreId":"1565","StoreName":"茂昌眼镜上海总店","TelD2":"021-63223596","StoreRank":1},{"Addr":"南京西路2-88号新世界城商场一楼北中厅","Area":"黄浦区","City":"上海","Latitude":31.241,"Longitude":121.48,"StoreId":"131","StoreName":"宝岛眼镜上海新世界店","TelD2":"021-63592755","StoreRank":2},{"Addr":"南京东路409号","Area":"黄浦区","City":"上海","Latitude":31.2421,"Longitude":121.489,"StoreId":"1901","StoreName":"观视界上海置地店","TelD2":"021-63527058","StoreRank":1},{"Addr":"南京东路372号","Area":"黄浦区","City":"上海","Latitude":31.2428,"Longitude":121.49,"StoreId":"1461","StoreName":"茂昌眼镜上海华联店","TelD2":"021-63503537","StoreRank":1},{"Addr":"自忠路338号新天地南里6号2楼24-6","Area":"黄浦区","City":"上海","Latitude":31.2248,"Longitude":121.482,"StoreId":"1890","StoreName":"美式眼镜上海玛士高新天地店","TelD2":"021-63842038","StoreRank":1},{"Addr":"西藏中路268号来福士广场02-02","Area":"黄浦区","City":"上海","Latitude":31.2351669402,"Longitude":121.4719595244,"StoreId":"36","StoreName":"亮视点上海来福士广场店","TelD2":"021-63404325","StoreRank":1},{"Addr":"南京东路228号B1(新世界大丸百货店）","Area":"黄浦区","City":"上海","Latitude":31.244057,"Longitude":121.492095,"StoreId":"2971","StoreName":"吴良材上海大丸百货店","TelD2":"021-33307171","StoreRank":1},{"Addr":"淮海中路642号","Area":"卢湾区","City":"上海","Latitude":31.2262,"Longitude":121.473,"StoreId":"1467","StoreName":"茂昌眼镜上海新淮海店","TelD2":"021-53822298","StoreRank":1},{"Addr":"石门一路288号兴业太古汇L288室","Area":"静安区","City":"上海","Latitude":31.236851,"Longitude":121.469226,"StoreId":"3631","StoreName":"亮视点上海太古汇","TelD2":"021-32035558","StoreRank":1},{"Addr":"南京西路842号","Area":"静安区","City":"上海","Latitude":31.2368,"Longitude":121.467,"StoreId":"362","StoreName":"美式眼镜上海时代 SD店","TelD2":"021-62530203","StoreRank":2},{"Addr":"吴江路169号四季坊2楼245","Area":"静安区","City":"上海","Latitude":31.2352,"Longitude":121.466,"StoreId":"621","StoreName":"艾视迪上海四季坊店","TelD2":"021-62711751","StoreRank":1},{"Addr":"南京西路962号","Area":"静安区","City":"上海","Latitude":31.235945,"Longitude":121.46493,"StoreId":"2974","StoreName":"宝视眼镜上海南西店","TelD2":"021-52121373","StoreRank":1},{"Addr":"南京西路店1010号","Area":"静安区","City":"上海","Latitude":31.2354,"Longitude":121.464,"StoreId":"1479","StoreName":"茂昌眼镜上海南西店","TelD2":"021-53822298","StoreRank":1},{"Addr":"淮海中路988号","Area":"卢湾区","City":"上海","Latitude":31.2228,"Longitude":121.465,"StoreId":"1465","StoreName":"茂昌眼镜上海淮海店","TelD2":"021-54045783","StoreRank":1},{"Addr":"陆家嘴西路168号正大广场B1FL05","Area":"浦东新区","City":"上海","Latitude":31.2429,"Longitude":121.507,"StoreId":"130","StoreName":"宝岛眼镜上海浦东正大店","TelD2":"021-68910836","StoreRank":3}]}